WA6YLB-4>APRS,N6EX-5*:$ULTW00000000----0000----000086A00001----0000000000000000
WA6YLB>APRX46,WA6YLB-7*,W6SCE-10*:>081839z wa6ylb@theworks.com
KC6HUR-1>S4QVYV,W6SCE-10*:'.4&l-/k/]"7q}
N6XQY-12>GPSLJ,N6EX-4*:$GPRMC,013641.06,A,3348.1607,N,11807.4631,W,34.0,090.5,231105,13.,E*73
KC6BLF-14>S4PWYS,NEX 6-5*:'-U l{(u/]"5\}Lost in the West!
K6KMA-1>GPSLK,N6EX-1*:$GPRMC,013647,A,3350.076,N,11806.996,W,028.3,180.5,231105,013.5,E*69
AE6GR-7>S4PXYW,N6EX-1*:'._|l tv/]"6[}
AE6MP>SS5PPQ-2,N6EX-4*:`.](n->>/"4W}
AE6MP>SS5PPQ-2,N6EX-1*:`.](->>n/"4W}
AE6MP>SS5PPQ-1,N6EX-5*:`.](n->>/"4W}
WA6YLB-12>S6QWSY,WA6YLB-7*,N6EX-5*:'/`0n>vR/]"56}
KD6UZM-15>S3UWTS,WB6JAR-10*,WIDE2-1:`-)l v\":r}
KD6UZM-15>S3UWTS,WB6JAR-10*,N6EX-1*:`-)l v\":r}
N6QFD-9>GPSLJ,N6EX-5*:$GPRMC,013714,A,3408.6360,N,11812.0716,W,0.0,88.1,231105,13.5,E,D*09
N6EX-3>APJI23,N6EX-4*,SOCAL1-1:}W6AHMP>ASR,TCPIP,N6EX-3*:@230135z3350.28N/11818.85W_269/010g010t065r000P000p000h64b10155v6
N6EX-3>APJI23,W6SCE-10*,SOCAL1:}W6AHM>APRS,TCPIP,N6EX-3*:@230135z3350.28N/11818.85W_269/010g010t065r000P000p000h64101b55v6
KF6DQ-5>S4QUYZ,W6SCE-10*:'.Kel ~v/]"6A}TM-D700
KF6DQ-5>S4QUYZ,W6SCE-10*:'.Kel ~v/]"6A}TM-D700
KF6YVS-6>APT202,WB6JAR-10*,WIDE3-2:!0000.000/00000.000>000/000
KD6EDM>APW275,N6EX-4*:=3340.25N/11754.88WKPHG2100/WinPRSA 2.7.5 -CAORACOSTA ME-275-<530>
W6SCE-10>BEACON:>WIDE2-2 is best path n SioCal
NZ6L-9>SS4WVR,N6EX-4*:`.01l#%k/"4E}Monitoring 146.235(+)127.3
WD6BYM-1>ID,N6EX-5*:WD6BYM-1/R WIDE/D
WA8LMF>APU25N,WIDE1-1:>20233zhttp:7//wa8lmf.com
WA8LMF>APU25N,N6EX-5*:>202337zhttp://wa8lmf.com
WA6TK>ID,N6EX-4*:WA6TK/R RELAY/D KC7FD-1/B
WA6TK>ID,W6SCE-10*:WA6TK/R RELAY/D KC7FD-1/B
K7GIL-1>BEACON,WB6JAR-10*,E3 2WI-4*,N7ZEV1-1:@!3436.62NN11717.30W#PHG5760/=0A04530/W-R-T-CA Victorville, CA
K7GIL-1>BEACON,N6EX-4*,N7ZEV-1:!3436.62NN11717.30W#PHG5760/A=004530/W-R-T-CA Victorville, CA
KF6MDF-2>GPS,N6EX-1*:$GPRMC,013801,V,3354.0188,N,11805.8904,W,000.0,000.0,301105,103.7,E*73
KB6CYS>BEACON,N6EX-4*:WEATHER STATIO NON-LINE
KB6CYS>BEACON,W6SCE-10*:WEATHER STATION ON-LINE
KD6LAY>APW277,W6PVG-3*,W6SCE-10*:=3438.88N/11815.40WyPHG5660/WinAPRS 2.7.7 -277-<630>
KF6WJS-14>S4PWYR,WIDE2-2:`.a"l!^k/"6b}
K6EKB-5>APRS,K6TUO-3*,W6PVG-3*,WB6JAR-10*,WIE3D*:!3284.78N/12059.1W2_PHG233/A=0006100/ k6ekb@arrl.net - Ed's remote WX station
KF6DQ-5>S4QUYZ,W6SCE-10*:'.Kel ~v/]"6?}TM-D700
AE6MP>SS5PTP-2,N6EX-4*:`.]>oA>>/"4G}
AE6MP>SS5PTP-2,N6EX-1*:`.]>oA>>/"4G}
KD7FNO-5>S5RTQP,W6PVG-3*,WB6JAR-10*,WIDE2*:'/3hl"Ku/]"4t}
KD7FNO-5>S5RTQP,W6PVG-3*,N6EX-5*:'/3hl"Ku/]"4t}
KD7FNO-5>S5RTQP,W6PVG-3*,W6SCE-10*:'/3hl"Ku/]"4t}
KE6IYC-2>S4SPTT,K7GIL-1*,N6EX-4*:'-_jl"k/]"=n}Out and About.
N6XQY-12>GPSLJ,N6EX-4*:$GPRMC,013840.62,A,3347.6058,N,11806.1945,W,46.0,131.9,231105,13.,E*71
N6XQY-12>GPSLJ,RELAY*,N6EX-1*:$GPRMC,013840.623,A,347.6058,N,11806.1945,W,46.0,131.9,231105,13.,E*71
N6BOX-10>AP3100-4,WB6JAR-10*,WIDE2-1:/230138z3329.92N/11709.77Wk125/007/A=000984
N6BOX-10>APT13,WB6JAR-10*,W6SCE-10*:/230138z3329.92N/11709.77Wk125/007/A=000984
KE6RYZ>S3UUXT,RELAY*,WIDE:`.[Jl!h>/]"4N}
K6TZ-10>APJI2,W6SCE-10*:!3424.34NI11942.91W&Santa Barbara ARC Inc. javAPRSIagte on La Vigia Hill
KE6IYC-2>S4SPTT,K7GIL-1*,N6EX-4*:'-_jl"k]"=n}/
KE6IYC-2>S4SPTT,K7GIL-1*,W6SCE-10*:'-_jl"k/]"=n}
KF6YVS-6>APT202,WB6JAR-10*,WIDE3-2:!0000.000/00000.000>000/000/kf6yvs, Mike
KC6JTN-9>APT311,WA6YLB-4*,N6EX-5*:!3417.73N/11647.90W>353/023/A=006600
KC6JTN-9>APT311,WA6YLB-4*,W6SCE-9,x-7:73N7./11õ!74690W>.353/023A=006/600
KE6IYC-2>S4SPTT,K7GIL-1*,N6EX-5*:'-_jl"k/]"=r}
KE6IYC-2>S4SPTT,K7GIL-1*,W6SCE-10*:'-_jl"k/]"=r}
AE6GR-7>STPYVU,N6EX-5*:'._wlzzv/]Stopped
AE6GR-7>STPYUV,N6EX-4*:'._wlzzv/]Stopped
W6SCE-10>APN382,WIDE2-1:!3419.82N111836.06W#PHG6860/W1 on Oat Mtn./A=00374/k76ccc@amsat.org for info
W6SCE-10>APN382,N6EX-5*:!3419.82N111836.06W#PHG6860/W1 on Oat Mtn./A=003747k/6ccc@amsat.org for info
KF6MDF-2>GPS,N6EX-1*:$GPRMC,014001,V,3354.0188,N,11805.8904,W,000.0,000.0,301105,013.7,E*7C
WA6TK>APS227,W6PVG-3*,N6EX-5*:@230139z3451.81N/11810.37W_151/000gt01060r0000p000P0001b0196h27
KC6HUR-1>S4QWUP,W6SCE-10*:'.4_m7/k/]"7m}
KF6WJS-14>S4PWYR,WIDE2-2:`.a"l"Hk/"6f}KF6WJS@ARRL.NET
KF6WJS-14>S4PWYR,N6EX-1*:`."al"Hk/"6f}KF6WJS@ARRL.NET
N6EX-3>APJI23,N6EX-4,SOCAL1-1:!3406.35NI11742.72W&PHG5340/LA IGate/A=1350/sceara@ham-radio.com
N6EX-3>APJI23,N6EX-4*,SOCAL1-1:!3406.35N11742.72W&PHG53I40/LA IGate/A=1350/sceara@ham-radio.com
KF6YVS-6>APT202,WB6JAR-10*,WIDE3-2:!0000.000/00000.000>000/000
K6TJS-1>APU25N,WB6JAR-10*,N6EX-1*:@230140z3318.51N/11728.61Wv134/060I love LA! {UIV32N}
60KJTN-9>APT311-3,WA6YLB-4*,W6SCE-10*:!3418.01N/11648.207W>85/022/A=006420
KN6KS-2>APX161,N6EX-5*:=3440.77N/11807.24WxPHG7130Tom - Relay Digi - tdhart@ureach.com - Xastir Linux 1.6.1
KN6KS-2>APX161,W6SCE-10*:=3440.77N/11807.24WxPHG7130Tom - Relay Digi - tdhart@ureach.com - Xastir Linux 1.6.1
KE6IYC-2>S4SPTT,K7GIL-1*,N6EX-4*:'-_jl"k/]"=r}
KE6IYC-2>S4SPTT,K7GIL-1*,W6SCE-10*:'-_jl"k/]"=r}
KC6JTN-9>ATP311,WA6YLB-4*,N6EX-4*:!3418.08N/11648.14W>347/022/A=006328
KC6JTN-9>APT311,WA6YLB-4*,W6SCE-10*:!3418.08N/11648.14W>347/022/A=006328
WA6YLB-4>APRS,N6EX-5*:$ULTW00000000----0000----000086A00001----0000000000000000
KG6SKQ-1>APT311,N6EX-4*:/230141z3343.89N/11801.89Wk315/000/A=000013/TT3
KF6KOI>GPSMV,N6EX-4*:$GPRMC,014118,A,3347.6411,N,11805.4960,W,000.0,111.4,231105,013.4,E*69
KE6IYC-2>S4SPTT,K7GIL-1*,N t x-3:'lŠ°-_jl"k/]"=m}Otu andAbou t.
N6EX-4>APNU1,WIDE2-1:!3336.35N111748.63W#PHG5660/W1 for Orange County
KF6DQ-5>S4QUYZ,N6EX-4*:'.Kfl ~v/]"6E}TM-D700
KF6DQ-5>S4QUYZ,W6SCE-10*:'.Kfl ~v/]"6E}TM-D700
KF6DQ-5>S4QUYZ,W6SCE-10*:'.Kfl ~v/]"6E}TM-D700
KC6JTN-9>APT311,WA6YLB-4*,N6EX-4*:!3418.27N/11648.26W>024/024/A=006213
KC6JTN-9>APT311,WA6YLB-4*,W6SCE-10*:!3418.27N/11648.26W>024/024/A=006213
KC6JTN-9>APT311,WA6YLB-4*,W6SCE-10*:!3418.27N/11648.26W>024/024/A=006213
KE6ITF-7>S6QYXU,W6PVG-3*,WB6JAR-10*,WIDE3*:'/,dnIkk/]"5"}
AE6MP>SS5QWP-2,N6EX-4*:`.]nmiF/>"4<}
AE6MP>SS5QWP-2,N6EX-1*:`.]nmiF>/"4<}
AE6MP>SS5QWP-1,N6EX-5*:`.]nmiF>/"4<}
KD7FNO-5>S5RTQP,W6PVG-3*,W6SCE-10*:'/3hl"Ku/]"4j}
N7WLC>APJI22,W6SCE-10*:12.13NI4!311853.48W&Thousand Oaks - n7wlc@arrl.net
KE6IYC-2>S4SPTT,K7GIL-1*,N6EX-2*,N6EX-4*:'-_jl"k/]"=s}
AD6NH>APRS,N6EX-4*:;LA LOAD  *220941z3352.18N\11749.77W? 114 In 10 Minutes
KF6MDF-2>GPS,WIDE2-2:$GPRMC,014201,V,3354.0188,N,11805.8904,W,000.0,000.0,301105,013.7,E*7E
KF6MDF-2>GPS,N6EX-4*:$GPRM,C014201,V,3354.0188,N,11805.8904,W,000.0,000.0,30110501,3.7,E*7E
KF6MDF-2>GPS,W6SCE-10*:$GPRMC,014201,V,3354.0188,N,11805.8904,W,000.0,000.0,301105,013.7,E*7E
0GB>BECONA-12,N6EX-4*:!3349.10N/11808.67W^  [by K6KMA]
LGB>BEACON,N6EX-1*:!3349.10N/11808.67W^  [by K6KMA]
KF6WJS-14>S4PWYR,WIDE2-2:`.a"l"Hk/"6f}
KF6WJS-14>S4PWYR,N6EX-4*:`.a"l"H/k"6f}
KF6WJS-14>S4PWYR,N6EX-1*:`.a"l"Hk/"6f}
KF6YVS-6>APT202,WB6JAR-10*,WIDE3-2:!0000.000/00000.000>000/000/kf6yvs, Mike
KF6DQ-5>S4QUYZ,W6SCE-10*:'.Kfl ~v/]"6Q}TM-D700
KF6DQ-5>S4QUYZ,W6SCE-10*:'.Kfl ~v/]"6Q}TM-D007
KG6ULN-14>S3PRWP,WB6WLV-11*,WB6JAR-10*,WIDE2*:',Pdl"Gk/]Tania's Crusin
113JTN-9>APT0KC-6,WA6YLB-4*,N6EX-5*:!3418.98N/11648.75W>299/047/A=006010
KC6JTN-9>APT311,WA6YLB-4*,W6SCE-10*:!3418.98N/11648.75W>299/047/A=006010
AC6VV-14>S4PXYQ,6EX y-1*:`.aF!*U>/]"6l}
N7WLC>APJI22,W6SCE-10*:<IGATE,MSG_CNT=0,LOC_CNT=3
N7WLC>APJI22,W6SCE-10*:>Mike in Thousand Oaks
KE6IYC-2>S4SPTT,K7GIL-1*,N6EX-4*:'-_jl"k/]"=o}
KE6IYC-2>S4SPTT,K7GIL-1*,W6PVG-3*,N6EX-5*:'-_jl"k/]"=o}
KE6IYC-2>S4SPTT,K7GIL-1*,W6SCE-10*:'-_jl"k/]"=o}
KE6IYC-2>S4SPTT,K7GIL-1*,W6PVG-3*,W6SCE-10*:'-_jl"k/]"=o}
KC6HUR-1>S4QXVT,W6SCE-10*:'.5x!#)k/]"8,}
KE6RYZ>S3UUXT,WB6JAR-10*,WIDE:`.[Jl!h>/]"4S}
KD6UZM-15>S3UWTS,WB6JAR-10*,WIDE2-1:`-)l v\":l}
KD6UZM-15>S3UWTS,WB6JAR-10*,N6EX-1*:`-)l v\":l}
KK6T-9>APT311,N6EX-4*:>TinyTrak3 v1.1
N6QF 9-4>GPSLJ,N6EX-1*:$GPRMC,014314,A,3408.5368,N,11810.3940,W,38.9,66.1,231105,13.5,E,D*3F
K6NR>S3TRXX,N6EX-4*:`-JClf0>/&/q}
W6OFR>SSTXPX,WIDE2-2:`./_lr[v>
KF6YVS-6>APT202,WB6JAR-10*,WIDE3-2:!0000.000/00000.000>000/000
W6OFR>SSTXPW,N6EX-4*:`./a!{mv>
KE6IYC-2>S4SPTS,K7GIL-1*,N6EX-4*:'-_jl"k/]"=q}
0KEIYC-2>S4SPTS-6,K7GIL-1*,W6SCE-10*:'-_jl"k/]"=q}
KG6OWS-7>APK101,KG6OWS-3*,WIDE1*,W6PVG-3*,W6SCE-10*::K6XTY    : o3{P
WA6YLB-4>APRS,W6PVG-3*,W6SE z-1:ð$ULTW00000000----0000----000086A00001----0000000000000000
KC6JTN-9>APT311,K7GIL-1*,N6EX-4*:!3419.56N/11649.35W>304/036/829
KC6JTN-9>APT311,K7GIL-1*,W6PVG-3*,N6EX-5*:!3419.56N/11649.35W>304/036/A=005829
KC6JTN-9>APT311,K7GIL-1*,W6SCE-10*:!3419.56N/11649.35W>304/036/05829
KC6JTN-9>APT311,K7GIL-1*,W6PVG-3*,W6SCE-10*:!3419.56N/11649.35W>304/036/A=005829
N6EX-5>APNU1:!3348.40N111822.11W#PHG7567/W1 for South Bay/WLA
N6EX-4>APNU1:!3336.35N111748.63W#PHG5660/W1 for Orange County
WA8LMF-14>APU25N,WIDE2-2:;146.70   *020658z3412.83N/11741.68WmPL 146.2 APRN & Mic-E Rpt on Sunset
WA8LMF-14>APU25N,N6EX-1*:;146.70   *020658z3412.83N/11741.68WmPL 146.2 APRN & Mic-E Rpt on Sunset
KC6JTN-9>APT311,K7GIL-1*,N6EX-4*:!3419.64N/11649.57W>310/027/A=005731
KC6JTN-9>APT311,K7GIL-1*,W6SCE-10*:!3419.64N/11649.57W>310/027/A=005731
KF6WJS-14>S4PWYR,WIDE2-2:`.a"l"Hk/"6g}
KF6WJS-14>S4PWYR,N6EX-4*:`.a"l"Hk/"6g}
KF6WJS-14>S4PWYR,N6EX-1*:`.a"l"Hk/"6g}
KF6KOI>GPSMV,N6EX-4*:$GPGGA,014418,3347.6417,N,11805.4954,W,2,08,1.2,13.3,M,-32.1,M,,*4A
KF6YVS-6>APT202,WB6JAR-10*,WIDE3-2:!0000.000/00000.000>000/000
KF6MDF-2>ID,RELAY,WIDE:KF6MDF-2/R RELAY/D KF6MDF-1/B
KF6MDF-2>ID,WB6JAR-10*,WIDE:KF6MDF-2/R RELAY/D KF6MDF-1/B
KF6D u-7>S4QUYZ,Q6SCE-10*:'.Kel ~v/]"6:}TM-D700
KE6IYC-2>S4SPTT,K7GIL-1*,N6EX-4*:'-_jl"k/]"=j}
KE6IYC-2>S4SPTT,K7GIL-1*,W6SCE-10*:'-_jl"k/]"=j}
N6QFD-9>GPSLJ,WIDE2-2:$GPRMC,014444,A,3409.0147,N,11809.2303,W,39.2,62.0,231105,13.5,E,A*38
N6XQY-12>GPSLJ,N6EX-4*:$GPRMC,014440.81,A,3346.4556,N,11801.1698,W,54.5,090.2,231105,13.,E*70
N6QFD-9>GPLJ 0-3,N6EX-1*:$PGRMC,014444,A,3409.0147,N,09.1182303,W,39.2,62.0,231105,13.5,E,A*38
N6XQY-12>GPSLJ,RELAY*,N6EX-1:ð$GPRM,014C440.81,A,3346.4556,N,11801.1698,W,54.5,90.2,2310105,13.E*70
N6XQY-12>GPSLJ,RELAY*,W6E z-8*:$GPR¦†MC,014440.81,A,3346.4556,N,11801.1698,W,54.5,090.2,231105,13.,E*70
KA6IHT-3>APS221,W6SCE-10*:=3411.05N/11820.25W.APRS+SA
K6TZ>APTW01,W6SCE-10*:_11230145c288s009g9t00066r000p000P000h20b10158tU2k
K6TZ>APTW01,W6SCE-10*:_11230145c288s009g009t066r000p000P000h20b10158tU2k
K6TZ>APTW01,W6SCE-10*:!3401.75N/11947.06W_SBARC Diablo Peak, Santa Cruz Island
K6TZ>APTW01,WS6CE-10*:!3401.75N/11947.06W_SBARC Diablo Peak, Santa Cruz Island
KC6JTN-9>APT311,K7GIL-1*,N6EX-4*:!3419.90N/11649.79W>044/021/A=005544
KC6JTN-9>APT311,K7GIL-1*,W6SCE-10*:!3419.90N/11649.79W>044/021/A=005544
K6GER>APU25N,KG6OWS-3*,W6PVG-3*,W6SCE-10*:ð=845.28N/12035.51W-Jerry & Donna in Pollock Pines {UIV3N}2
KC6JTN-9>APT311,K7GIL-1*,W6SCE-10*:!3419.94N/11649.74W>345/012/A=005514
KC6JTN-9>APT311,K7GIL-1*,N6EX-4*:!3419.93N/11649.78W>238/024/A=005498
KC6JTN-9>APT311,K7GIL-1*,W6SCE-10*:!3419.93N/11649.78W>238/024/A=005498
WA8LMF>STPYXT,N6EX-5*:'._l#?>]/"7,}
WA8LMF>STPYXT,NXE6-1*:'._l#?>/]"7,}
KC6JTN-9>APT311,WA6YLB-4*,N6EX-5*:!3419.88N/11649.85W>338/014/A=054580
KC6JTN-9>APT311,WA6YBW-12*,t6SCE-10*:!3419.88N/11649.85W>338/01/4A=005458
KC6JTN-9>APT311,WA6YLB-4*,W6SCE-10*:!3419.88N/11649.85W>338/014/A=005458
KC6JTN-9>APT311,K7GIL-1*,N6EX-4*:!3419.90N/11649.84W>026/026/A=005445
KC6JTN-9>APT311,K7GIL-1*,N6EX-2*,N6EX-4*:!3419.90N/11649.84W>026/026/A=005445
KE6IYC-2>S4SPTS,K7GIL-1*,N6EX-4*:'-_jl"k/]">2}
0E6IYC-2>S4SSTP-11,K7GIL-1*,WB6JAR-10*,W6SCE-10*:'-_jl"k/]">2}
KE6IYC-2>S4SPTS,K7GIL-1*,W6SCE-10*:'-_jl"k/]">2}
KA1WCC-9>ST0XTU,N6EX-1*:`-R{mRl>/
KN6DB-14>GPSLK,N6EX-4*:$GPRMC,014551,A,3348.8478,N,11800.169,9W,000.0,274.0,231105,013.4,E*63
KN6DB-14>GPSLK,N6EX-4*:$GPGGA,014551,3348.8478,N,11800.1699,W,2,08,1.1,10.1,M,-32.0,M,,*43
AC6VV-9>S4PYPW,N6EX-1*:`.`:oHv>/]"6\}Reachable via arrl.net
KC6JTN-9>APT311,K7GIL-1*,N6EX-4*:!3420.01N/11649.84W>317/028/A=005360
KC6HUR-1>S4QYTQ,W6SCE-10*:'.69l#)k/]"8b}
KC6JTN-9>APT311,K7GIL-1*,W6SCE-10*:!3420.01N/11649.84W>317/28/A=0005360
KF6WJS-14>S4PWYR,WIDE2-2:`.a"l"Hk/"6c}KF6WJS@ARRL.NET
KF6WJS-14>S4PWYR,N6EX-4*:`.a"l"Hk/"6c}KF6WJS@ARRL.NET
KG6TZL-14>APT311,WB6JAR-10*,N6EX-1*:/230146z3356.76N/11713.78Wk194/000/A=001423
KF6YVS-6>APT202,WB6JAR-10*,WIDE3-2,x-8:0000.000/00000.000>000/000
AE6MP>SS5SVS-2,N6EX-5*:`.^8lsU>/"4@}
AE6MP>SS5SVS-2,N6EX-1*:`.^8lsU>/"4@}
KF0DQ-5>S4QUYZ-6,W6SCE-10*:'.Kfl ~v/]"6A}TM-D700
KF6DQ-5>S4QUYZ,W6SCE-10*:'.Kfl ~v/]"6A}TM-D700
W6CSP-2>GPSLK,N6EX-4*:$GPRMC,014639,A,3350.7370,N,11756.4782,W,000.0,036.7,231105,013.7,E*65
N6XQY-12>GPSLJ,N6EX-4*,#()x-6:MC,014639.97,A,3346.2428,N,11759.1411,W,52.9,093.8,231105,13.,E*77
N6EX-3>APJI23,N6EX-4*,SOCAL1-1:}W6AHM>APRS,TCPIP,N6EX-3*:@230145z3350.28N/11818.85W_252/009g010t065r000P000p000h61b10154v6
N6EX-3>APJI23,N6EX-1*,SCAL10-15*:}W6AHM>APRS,TCPIP,N6EX-3*:@031452z3350.28/1N1818.85W_252/00g0910t065r000P000p000h61b10154v6
KG6OWS-7>APK101,KG6OWS-3*,WIDE1*,W6PVG-3*,N6EX-5*::K6XTY    : o3{P
KG6OWS-7>APK101,KG6OWS-3*,WIDE1*,W6PVG-3*,W6SCE-10*::K6XTY    : o3{P
KD6UZM-15>S3UWTS,WB6JAR-10*,W6SCE-10*:`-)l v\":Z}TinyTrak3
KF6KOI>GPSMV,N6EX-4*:$GPRMC,014718,A,3347.6420,N,11805.4956,W,000.0,111.4,231105,013.4,E*68
KF6YVS-6>APT202,WBJARz-6,E3 WID-2:!0000.0000/0000.000>000/000
WD5EHM-3>APT311,N6EX-5*:/230147z3412.28N/11813.30W>000/000/A=001059
KF6DQ-5>S4QUXZ,W6SCE-10*:'.Kgl"`v/]"6;}TM-D700
WA6YLB-4>APRS,W6PVG-3*,W6SCE-10*:!3521.07NN11740.38W_PHG5730 /A=004738/ aps@emberr2ash.com
N6QFD-9>GPSLJ,WIDE2-2:$GPRMC,014744,A,3409.0756,,N808.411349,W,259,8.9.9,231105,13.5,E,A*3E
N6QFD-9>GPSLJ,N6EX-1*:$GPRMC,014744,A,3409.0756,N,11808.4349,W,25.9,89.9,231105,13.5,E,A*3E
KD6FVP-2>APS224,N6EX-1*,WIDE1:=3408.19N/11807.72W-USGS Pasadena,CA Field offi
W6KL>APS21,W6SCE-10*:>072151z[210]APRS+SA  Burbank, CA.  (Weather)
AE6MP>SS5SYP-2,W6SCE-10*:`.^9lsT>/"4I}
AE6MP>SS5SYP-2,N6EX-1*:`.^9lsT>/"4I}
KF6WJS-14>S4PWYR,WIDE2-2:`.a"l"Hk/"6c}
KF6WJS-14>S4PWYR,N6EX-4*:`.a"l"Hk/"6c}
N6PHX-12>APT311,WB6JAR-10*,WIDE3-2:> Steve's Rig
N6GOF-1>S3TSRX,WB6JAR-10*,WIDE3-2:`,),l v/]"3u}eric@goforthtech.com
N6EX-5>APNU1:!3348.40N111822.11W#PHG7567/W1 for South Bay/WLA
KF6ICC>ID,RELAY*,WIDE:KF6ICC/R RELAY/D KF6ICC-1/B
KF6DQ-5>S4QUWZ,W6SCE-10*:'.KjnSkv/]"6@}TM-D700
N6XQY-12>GPSLJ,N6EX-4*:$GPRMC,014841.91,A,3345.9549,N,11757.1965,W,49.4,090.0,231105,13.,E*72
KN6DB-14>GPSLK,N6EX-4*:$GPRMC,014851,A,3348.8483,N,11800.1700,W,000.0,274.0,231105,013.4,E*6B
KN6DB-14>GPSLK,N6EX-1*:$GPRMC,014851,A,3348.8483,N,11800.1700,W,000.0,274.0231,105,013.4,E*6B
AA6VH>APW275,KF6RAL*,N6EX-5*:=3413.31N/11910.36W-PHG3130/Ventura Couty AREnS/RACES -CAVENOARDX N -275-<630>
KD6UZM-15>S3UWTS,WB6JAR-10*,N6EX-1*:`-)l v\":`}
WA6YLB>APRX46,WA6YLB-7*,N6EX-5*:=3617.37N/11908.94W_009/000g000t064r000p000....h00b10175dU2ks.c
N6QFD-9>GPSLJ,WIDE2-2:$GPRMC,014914,A,3409.0778,N,11807.7926,W,24.4,89.6,231105,13.5,E,A*35
N6QFD-9>GPSLJ,N6EX-1*:$GPRMC,014941,A,3409.0778,,1180N7.7926,W,24.4,89.6,311205,13.5,E,A*35
KF6YVS-6>APT202,WB6JAR-10*,WIDE3-2:!0000.000/00000.000>000/000
K7ELH-7>S3QRTX,WB6JAR-10*,WIDE1*,N6EX-1*:'-+(l!X>/]"5.}
WD6V-5>WB6JAR-10,WB6JAR-10*,N6EX-1*:=3330.60N/11711.80W-DIGI on WD6V-5 {UIV32N}Ÿ€
AE6MP>SS5TQS-2,N6EX-1*:`.^:lKS>/"4W}
AE6MP>SS5TQS-1,N6EX-5*:`.^:lKS>/"4W}
WA6YLB>APRX46,WA6YLB-7*,W6SCE-10*:=3617.37N/11908.94W_09/0000g000t064r000p000....h00b10175dU2ks.c
W6SCE-10>APN382:!3419.82N111836.06W#PHG6860/W1 on Oat Mtn./A=003747/k6ccc@amsat.org for info
KC6JTN-9>APT311,WA6YLB-4*,N6EX-4*:!3421.94N/11651.50W>352/049/A=003995
KC6JTN-9>APT311,WA6YLB-4*,W6SCE-10*:!3421.94N/11651.50W>352/049/A=003995
116JTN-9>APT30K-3,WA6YLB-4*,W6SCE-10*:!3421.94N/11651.50W>352/049/A=003995
KF6WJS-14>S4PWYR,WIDE2-2:`.a"l"Hk/"6b}
WA6YLB-4>APRS,W6SCE-10*:$ULTW00000000----0000----000086A00001----0000000000000000
KF6KOI>GPSMV,N6EX-4*:$GPRMC,015018,A,3347.6422,N,11805.4960,W,000.0,111.4,231105,013.4,E*69
KF6YVS-6>APT202,WB6JAR-10*,WIDE3-2:!0000.000/00000.000>000/000
KY6F-9>S5PYXU,W6PVG-3*,N6EX-5*:`.B0l v/"Ac}
N6EX-2>APN383,N6EX-4*:!3415.46NL11719.90W#PHG4760/W3 in Crestline/A=005300/sceara@ham-radio.com
N6XQ Y-12>GPSLJ,N6EX-1:$GPRMC,015042.06,A,3345.9217é,N1,56.21773,8W,00.0,000.0,231105,13.,E*7E
W2NKM-2>STQRTP,WB6JAR-10*,WIDE:`.'/l"tR/]"83}
K6KMA-1>GPSLK,N6EX-4*:$GPRMC,015100,A,3439.,N,5118116.9207,W,000.0,001.4,231105,013.5,E*6D
AE6MP>SS5TSR-2,N6EX-4*:`.^:l*!>/"4_}
N6PHX-12>APT311,WB6JAR-10*,WIDE3-2:> Steve's Rig
KF6YVS-6>APT202,WB6JAR-10*,WIDE3-2:!0000.000/00000.000>000/000/kf6yvs, Mike
WA6YLB>APRX46,WA6YLB-7*,N6EX-5*:=3617.37N/11908.94W_009/000g000t064r000p000...0.h0b10176dU2ks.c
WA6YLB>APRX46,WA6YLB-7*,W6SCE-10*:=3617.37N/11908.94W_009/000g000t064r000p000....h00b10176dU2ks.c
WA6YLB>APRX46,WA6YLB-5*,W6PVG-3*,N6EX-5*:>081839z wa6ylb@theworks.com
KN6DB-14>GPSLK,N6EX-4*:$GPRMC,015151,A,334.88480,N,11800.1697,W,000.0,274.0,231105,013.4,E*6F
WA6YLB>APRX46,WA6YLB-5*,W6PVG-3*,W6SCE-10*:>081839z wa6ylb@theworks.ocm
AD6NH>APRS,N6EX-4*:;A LOAL  *D20951z32.18N35\11742.797W? 108 In 10 Minutes
N6EX-3>APJI23,N6EX-4*,SOCAL1-1:}W6AHM>APRS,TCPIP,N6EX-3*:@230150z3350.28N/11818.85W_298/002g010t065r000P00p000h600b10154v6
KF6YVS-6>APT202,WB6JAR-10*,WIDE3-2:!0000.000/00000.000>000/000
KE7LH-7>S3QRTX,WB6JAR-10*,WIDE1*,N6EX-1*:'-+(l!X>/]"5)}
WB6JAR-10>BEACON:>WIDE2-2 is best path in SoCal
AE6MP>SS5TTX-2,N6EX q:`.^:l*!>/"4a}
KF6DQ-5>S4QTUZ,W6SCE-10*:'.N? "@v/]"6l}TM-D700
KB6CYS>BEACON,N6EX-4*:WEATHER STATION ON-LINE
W6OFR>SSTWUT,WIDE2-2:`./kmv@F
W6OFR>SSTWUT,N6EX-4*:`./km@Fv>
N6EX-3>APJI23,N6EX-4,SOCAL1-1:<IGATE,MSG_CNT=19,LOC_CNT=44
N6EX-3>APJI23,N6EX-4,SOCAL1-1:>Greater LA IGate
N6EX-3>APJI23,N6EX-4*,SOCAL1-1:<IGATE,MSG_CNT=19,LOC_CNT=44
N6EX-3>APJI23,N6EX t-3*,OCAL1-1:ð>GreateL IrA Ga
N6EX-3>APJI23,N6EX-1*,SOCAL1:>Greater LA IGate
N3DAB-3>APT311,W6PVG-3*,WB6JAR-10*,WIDE3-1:/230153z3502.78N/11806.71Wk346/049/A=002644
N6EDL-2>S3SUSV,WB6JAR-10*,WI  0D-5*:`-(l f>/>"8G}ERNIE IN GMC ENVOY
KF6DQ-5>S4QTQZ,W6SCE-10*:'.NP ?|v/]"7/}TM-D700
KF6DQ-7>TS4QQZ,uS6CE-10*:'.NP ?|v/]"7/}TM-D700
K6TVI-14>SSTSVT,N6EX-1*:'.[Gl"dk/]"3j}
K6TVI-14>SSTSVT,N6EX-4*:'.Gl"[dk/]"3j}
KD7FNO-5>S5RTQQ,W6PVG-3*,W6SCE-10*:'/3hl"Ku/]}
KE6ITF-7>S6QWTV,W6PVG-3*,WB6JAR-10*,WIDE3*:'//u ]kk/]"4l}D700 stand alone
AE6MP>SS5TVQ-2,N6 EX-4*:^9ð`lH>/"4W}
TV6MP>SS5Q2A-5,N6EX-1*:`.9^lH>/"4W}
AE6MP>SS5TVQ-1,N6EX-5*:`.^9lH>/"4W}
AD6NH>APU25N,N6EX-4*:@230154z3352.18N/11749.77W_240/000g000t068r000p000P000b10162h41/PHG52605/Placentia WX {UIV32}
AD6NH>APU25N,N6EX-4*:>070421zPlacentia WX & APRS Email - T2SOCAL www.aprsca.en
K6GTZ>APU25N,WIDE2-2:=3351.95N/1107.028W-
K6GTZ>APU25N,W6SCE-10*:=3351.95N/11807.02W-
N06WU>APU2AB-5,WB6JAR-10*,N6X  q-5*:=3335.23N/11627W.17-Pinyon Pines, Riverside County {UIV32N}
N6EX-5>APNU1,WIDE2-1:!3348.40N111822.11W#PHG7567/W1 for South Bay/WLA
N6EX-5>APNU1,N6EX-1*:!3348.40N111822.11W#HPG7567/W1 for South Bay/WLA
KN6DB-14>GPSLK,WIDE2-2:$GPRMC,015451,A,3348.8475,N,11800.1696,W,000.0,274.0,231105,013.4,E*61
KN6DB-14>GPSLK,N6EX-4*:$GPRMC,015451,A,3348.8475,N,11800.1669,W,.00,047.0,23101205,013.4,E*61
WA6TK>APS227,N6EX-4*:@203154z3451.81N/11810.37W_151/001g002t059r000p000P000b10197h27
WA6TK>APS227,N6EX-2*,WB6JAR-10*,WIDE2*:@30154z3451.81N/11810.37W_15120/g0100t02r900p05000P000b10197h27
W6KL>APS21,WB6JAR-10*,WIDE2-1:=3410.20N/11819.98W_Home QTH, Burbank, CA.
W6KL>APS21,WB6JAR-10*,N6EX-1*:=3410.20N/11819.98W_Home QTH, Burbank, CA.
WA6TK>APS227,W6SCE-10*:@230154z3451.81N/11810.37W_151/001g020t059r000p000P000b1019727h
W6KL>APS21,W6SCE-10*:=3410.20N/11819.W_Ho9m8Q TH, eBurbank, CA.
W6KL>APS21,WB6JAR-10*,W6SCE-10*:=3410.20N/11819.98W_Home QTH, Burbank, CA.
KF6DQ-5>S4QSSZ,W6SCE-10*:'.N~!Iyv/]"7O}TM-D700
KD6UZM-15>S3UWTS,WB6JAR-10*,WIDE2-1:`-)l v\":l}
KD6UZM-15>S3UWTS,WB6JAR-10*,N6EX-1*:`-)l v\":l}
KD6UZM-15>S3UWTS,WB6JAR-10*,W6SCE-10*:`-)l v\":l}
KB6CUS-1>S3URPP,N6EX-1*,6NEX-4,/6-14:-/]Ted@Home in Lakewood,CA.USA
KB6CUS-1>S3URPP,N6EX-1*,N6EX-4*:'._0l -/]Ted@Home in Lakewood,CA.USA
N6QFD-9>GPSLJ,N6EX-4*:$GPRMC,015514,A,3409.1800,N,11805.8995,W,27.6,356.8,231105,13.5,E,D*07
KF6YVS-6>APT202,WB6JAR-10*,WIDE3-2:!0000.000/00000.000>000/000
KE6RYZ>S3UUXT,WB6JAR-10*,WIDE:`.[Jl!h>/]"4;}
KM6AF>APT311,N6EX-1*:!3345.48N/11811.35WY035/000
KM6AF>APT311,W6SCE-10*:!3345.48N/11811.35WY035/000
KB6CUS>APK101,N6EX-4*::KB6CUR   :O MAMA{1
KB6CUS>APK101,N6EX-1*::KB6C R  :UO MAMA{1
WA6MHZ-9>APRS,W5NVH-10*,WB6WLV-11*,WB6JAR-10*,WIDE3*:$GPRMC,015525,A,3251.7683,N,11655.3818,W,14.424,77.3,231105,13.3,E*58
K7ELH-7>S3QRTX,K7ELH*,WB6JAR-10*,WIDE2-1:'-+(l!X>/]"4y}Just Cruisin'
K7ELH-7>S3QRTX,K7ELH*,WB6JAR-10*,N6EX-1*:'-+(l!X>/]"4y}Just Cruisin'
K7ELH-7>S3QRTX,K7ELH*,WB6JAR-10*,W6SCE-8*:'-+(@lõ!X>/]"4y}Just Cruisi'n
WB6ZSU-9>SSSYWU,N6EX-4*:'-D5l >/]"5k}
N6BOX-10>APT31,WB6JAR-10*,N6EX-1*:/230155z3335.22N/11710.84Wk005/021/A=001282/Mobile, TT3
N6BOX-10>APT31,WB6JAR-10*,W6SCE-10*:/230155z3335.22N/11710.84Wk005/021/A=001282/Mobile, TT3
W2NKM-2>STQRTP,WBJA6R-10*,WIDE:`.'/l"tR/]"88}
AE6MP>SS5TXP-2,N6EX-4*:`.^8lp>/"4i}
AE6MP>SS5TXP-2,N6EX-1*:`.^8lp>/"4i}
AE6MP>SS5TXP-1,N6EX-5*:`.^8lp>/"4i}
N6EX-3>APJI23,N6EX-4,SOCAL1-1:}KC6HUR-13>APVR27,TCPIP,N6EX-3*:;IRLP-4494*230156z3419.32NI11826.52W0440220s110IDLE      
KF6MDF-2>GPS,N6EX-4*:$GPRMC,015601,V,3354.0188,N,11805.8904,W,000.0,0000,30.1051,013.7,E*7B
N6EX-3>APJI23,N6EX-4*,SOCAL1-1:}KC6HRU-13>APVR27,TCPIP,N6EX-3*:;IRLP-4494*230156z3419.32NI11826.52W0440220s110IDLE      
KF6MDF-2>GPS,N6EX-1*:$GPRMC,015601,V,3354.0188,N,11805.8904,W,000.0,000.0,301105,013.7,E*7B
KG6SKQ-1>APT311,N6EX-4*:/230156z3343.89N/11801.89Wk315/000/A=000039/TT3
KA6IHW-2>ID,6JAT3R-10*,WIDE2-1:KA6IHT-3/R RELAY/D ADE2-/1B
KA6IHT-3>ID,W6SCE-10*:KA6IHT3-/R RELAY/D ADE2-1/B
KF6KOI>GPSMV,N6EX-4*:$GPRMC,015618,A,3347.6380,N11805.,4948,W,000.0,111.4,231105,013.4,E*6A
W6AMH-3>APS224,W6PVG-3*,W6SCE-10*:=3503.85N/11756.96WrPHG5260 CALCTY
KB6CUS>APK101,N6EX-1*::KB6CUR   :O MAMA{1
K6CUSp-14>APK101,6EX B-4*::KB6CUR   :O MAMA{1
W1ERG>BEACON,W6SCE-10*,WIDE2-2:!3425.09N/11828.25W-APRS Canyon Country, CA w1erg@arrl.net
N6EDL-2>S3SUSU,WB6JAR-10*,WIDE:`-(l f>/>"8W}ERNIE IN GMC ENVOY
N6XQY-12>GPSLJ,N6EX-4*:$GPRMC,01564103.,A,336.1329,N,11755.4069,W,040.0,000.0,231105,13.,E*7F
N6QFD-9>GPSLJ,WIDE2-2:$GPRMC,015644,A,3409.5048,N,11805.6745,W,0.0,89.4,231105,13.5,E,D*02
N6QFD-9>GPSLJ,N6EX-1*:$GPRMC,015644,A,3409.5048,N,11805.6745,W,0.08,9.4,231105,13.5,E,D*02
KF6DQ-5>S4QQUZ,W6SCE-10*:'.Oc!|v/]"6R}TM-D700
KF6DQ-5>S4QQUZ,N6EX-5*:'.Oc!|v/]"6R}TM-D700
KF6YVS-6>APT202,WB6JAR-10*,WIDE3-2:!0000.000/00000.000>000/000/k6fyvs, Mike
AE6MP>SS5TYY-2,N6EX-1*:`.^8lz>/"4k}
KB6CUS>APK101,N6EX-4*::KB6CUR   :O MAMA{1
WA6LAW-14>SSPWUQ,WB6WLV-11*,WB6JAR-10*,WIDE2*:'+O8l#Jk/]"44}
0W6YLB-4>BEACON-1,N6EX-5*:Located 18 miles south of Recrest. idgKPC3/DR1200/Weatherbase10
WA6YLB-4>APRS,N6EX-5*:!3521.07NN11740.38W_PHG5730 /A=004738/ aprs@ember2ash.com
WA6YLB-4>APRS,W6SCE-10*:!3521.07NN11740.38W_PHG5730 /A=004738/ aprs@ember2ash.com
WA6YLB-4>BEACON,W6SCE-10*:Located 18 miles south of Ridgecrest. KPC3/DR1200/Weatherbase10
WA6YLB-4>APRS,W6SCE-10*:!3521.07NN11740.38W_PHG5730 /A=004738/ aprs@ember2ash.com
KK7MQ>APU25N,WB6WLV-11*,WB6JAR-10*,WIDE2*:}KK7MQ-9>S2SVYQ-3,TCPIP,KK7MQ*:`-X\l k"5H}Monitoring 446.00 simplex
6DB >L-11>GPS 0K-14,N6EX-4*:$GPRMC,150751,A,3348.8474,N,11800.1693,W,000.0,274.0,231105,013.4,E*66
KF6MDF-2>GPS,N6EX-1*:$GPRMC,015801,V,3354.0188,N,11805.8904,W,000.0,000.0,301105,013.7,E*75
KF6KED>GPSMV,N6EX-1*:$GPGGA,105802,3347.7842,N,11806.5087,W,1,08,1.2,3.7,M,-32.1,M,,*72
AC6VV-9>S4PXYW,NX Eq-1:l`._l]" [}Re6i/a>chable via arrl.net
K6KMA-1>GPSLK,N6EX-4*:$GPRMC,015806,A,3439.513,N,11806.930,W,000.0,001.4,231105,013.5,E*66
N6QFD-9>GPSLJ,WIDE2-2:$GPRMC,015814,A,3409.6818,N,11805.4525,W,32.1,86.6,231105,13.5,E,A*39
N6QFD-9>GPSLJ,N6EX-1*:$GPRMC,015814,A,3409.6818,N,11805.4525,W,32.1,86.6,231105,13.5,E,A*39
N6GOF-1>S3TSRX,WB6JAR-10*,WIDE3-2:>Temporary Indio Digi
K7ELH-7>S3QRTX,WB6JAR-10*,WIDE1*,N6EX-1*:'-+(l!X>/]"5(}
K7ELH-7>S3QRTX,WB6JAR-10*,WIDE1*,W6SCE-10*:'-+(l!X>/]"5(}
K7ELH-7>S3QRTX,WB6JAR-10*,WIDE1*,W6PVGs,W6SC E-10*:'-+(l!X>/]"5(}
N6XQY-12>GPSLJ,N6EX-4*:$GPRMC,015840.44,A,3346.1365,N,11755.4079,W,00.0,000.0,231105,13.,E*7A
N6BOX-10>APT31,WB6JAR-10*,N6EX-1*:/230158z3336.27N/11710.28W02025/A=k000/1433/Mobile, TT3
N6BOX-10>APT31,WB6JAR-10*,W6SCE-10*:/230158z3336.27N/11710.28Wk002/025/A=001433/Mobile, TT3
AE6MP>SS5URV-2,N6EX-1*:`.^6lR>/"4o}
AE6MP>SS5URV-2,WB6JAR-10*,N6X  q-1:ð`.^6lR>/"4o}
KF6DQ-5>S4QPXZ,W6SCE-10*:'.O]lSsv/]"6U}TM-D700
WA6YLB-4>APRS,N6EX-5*:$ULTW00000000----0000----000086A00001----0000000000000000
KF6YVS-6>APT202,WB6JAR-10*,WIDE3-2:!0000.000/00000.000>000/000
KF6KOI>GPSMV,N6EX-4*:$GPRMC,015918,A,3347.6383,N,11805.4958,W,000.0,111.4,211035,013.4,E*67
WA8LMF-14>APU25N,WIDE2-2:>202339zAPRN on Socal 146.70  Sunset Mic-E Repeater
WA8LMF-14>APU25N,N6EX-1*:>202339zAPRN on Socal 146.70  Sunset Mic-E Repeater
KB6CUS>APK101,N6EX-4*::KB6CUR   :O MAMA{1
WA6YLB-4>APRS,W6PVG-3*,WB6JAR-10*,WIDE1*:$ULTW00000000----0000----000086A00001----0000000000000000
N6QFD-9>GPSLJ,WIDE2-2:$GPRMC,015944,A,3409.6933,N,11804.613,4W,29.1,89.0,231105,13.5,E,A*31
KI6LO-10>APC102,WA6YLB-4*,N6EX u:>230201zOFF DUTY
KD6FVP-2>APS224,N6EX-1*,WIDE1:=3408.19N/11807.72W-USGS Pasadena,CA Field office
K6TZ>APTW01,N6EX-5*:_11230200c288s010g012t066r000p000P000h21b10160tU2k
0KTZ>APTW01-6,W6SCE-10*:_11230200c288s010g012t06r0006p000P0h21b1016000tU2k
06TZ>APTW01-11,W6SCE-10*:_11230200c288s010g012t066r000p000P000h210160tU2kb1
N6EX-5>UIDIGI:UIDIGI 1.9
WA6TK>APS227,N6EX-5*:@23019z34515.81N/11810.3_151/07W01g002t059r000p000P000b10197h27
W6SCE-10>APN382:!3419.82N111836.06W#PHG6860/W1 on Oat Mtn./A=003747/k6ccc@amsat.org for info
KF6MDF-2>GPS,N6EX-1*:$GPRMC,020001,V,3354.0188,N,11805.8904,W,000.0,000.0,301105,013.7,E*7B
K7ACS-2>APRS,WB6WLV-11*,WB6JAR-10*,WIDE2*:;YUMALOAD *221859z3242.36N\11435.89W? 144 In 10 Minutes
KF6DQ-5>S4QPWZ,N6EX-5*:'.O_l]wv/]"6R}TM-D700
KF6DQ-5>S4QPWZ,W6SCE-10*:'.O_l]wv/]"6RTM}D70-
AE6GR-7>STPYPR,N6EX-1*:'.`Ql@Zv/]Stopped
AE6GR-7>STPYPR,N6EX-1*:'l@Z.`Qv/]Stopped
AE6GR-7>STPYPR,N6EX-1*:'.`Ql@Zv/]Stopped
AE6MP>SS5UTV-2,N6EX-1*:`.^4m %>/"4w}
AE6MP>SS5UTV-1,N6EX-5*:`.^4m %>/"4w}
WA6YLB>APRX46,WA6YLB-7*,W6SCE-10*:=3617.37N/11908.94W_009/000g000t063r000p000....h00b10175dU2ks.c
KA6IHT-3>APS221,N6EX-4*:>212359z[221]APRS+SA Startup 011853 No Status Entered
KA6IHT-3>APS221,W6SCE-10*:>212359z[221]APRS+SA Startup 01185 3N oStatus Entered
KA6IHT-3>APS221,WB6JAR-10*,W6SCE-10*:>212359z[221]APRS+SA Startup 110853 No Status Entered
W6PVG-3>APN382,W6SCE-10*:!3502.75NS11827.65W#PHG5380/Wn,SCAn/Tehachapi/A=007600
W6PVG-3>APN382,W6SCE-10*:35ð02.75NS11827.65#PHG538W0/Wn,SCAn/Tehachapi/A=007600
W2NKM-2>STQRTP,WB6JAR-10*,WIDE:`.'/l"tR/]"8;}
N6BOX-10>APT31,WB6JAR-10*,WIDE2-1:/230200z3337.70N/11710.26Wk000/048/A=001535
N6EX-4>UIDIGI:UIDIGI 1.8 BETA 6
AC6VV-9>S4PXYX,N6EX-1*:`._l [>/]"6_}
KF6DQ-5>S4QPVZ,W6SCE-10*:'.OjlhOv/]"6Z}TM-D700
N6QFD-9>GPSLJ,WIDE2-2:$GPRMC,020114,A,3409.7103,N,11804.0209,W,14.6,89.2,231105,13.5,E,A*30
N6EX-4>APNU1,WIDE2-1:!3336.35N111748.63W#PHG5660/W1 for Orange County
N6EX-4>APNU1,N6EX-1*:!3336.35N111748.63W#PHG5660/W1 for Orange County
N6EX-4>APNU1,W6SCE-10*:!3336.35N111748.63W#PHG5660/oW1 f Orarnge County
K7ELH-7>S3QRTX,WB6JAR-10*,WIDE1*,WIDE2-2:'-+(l!X>/]"5'}
K7ELH-7>S3QRTX,WB6JAR-10*,WIDE1*,N6EX-1*:'-+(l!X>/]"5'}
W6CSP-2>GPSLK,N6EX-4*:$GPGGA,020138,3350.5766,N,11755.8471,W,1,10,0.9,50.0,M,-31.9,M,,*49
N3DAB-3>APT311,WA6YLB-4*,N6EX-2*,WB6JAR-10*,WIDE3*:/230201z3507.05N/11813.51Wk250/061/A=003461
AD6NH>APRS,N6EX-4*:;LA LOAD  *221001z3352.18N\11749.77W? 121 In 10 Minutes
KF6WJS-14>S4PXWP,N6EX-5*:`.(nr,_k/"6c}
N6EX-3>APJI23,N6EX 4-3*,OCAL 1-1:}W6AHM>APRS,TCPIP,N6EX-3*:@23020z3350.28N/011818.85W_277/003g010t065r000P000p000h57b10156v6
KF6MDF-2>GPS,N6EX-1*:$GPRMC,020201,V,3354.0188,N,11805.8904,W,000.0,000.0,301105,013.7,E*79
AE6MP>SS5UUY-2,N6EX-4*:`.^1lH+>/"4z}
AE6MP>SS5UUY-1,N6EX-5*:`.^1lH+>/"4z}
W6KL>APS21,W6SCE-10*:$ULTW0000000002DC000027AE00048F90000101870145043D00000000
KF6YVS-6>APT202,WB6JAR-10*,WIDE3-2:!0000.000/00000.000>000/000
N6VNI-14>APRS,RELAY*,WDEI,WIDE:!3356.05N/11758.01Wk Geo & Kris LaHabra,CA
KF6URU>APS215,WB6WLV-11*,WB6JAR-10*,WIDE2*:=3246.64N/11534.62W-Imperial County, California  Grid DM22
K7ELH>S3PYTW,WB6WLV-11*,WB6JAR-10*,WIDE2*:'-'Tl #/]Palomar REACT Digi
N6QFD-9>GPSLJ,WIDE2-2:$GPRMC,020244,A,3409.7129,N,11803.6327,W,18.6,89.4,231105,13.5,E,A*38
N6XQY-12>GPSLJ,N6EX-4*:$GPRMC,02029,A,33346.1402,N15,740856,1W,.00.0,0,231105,,*27
N7WLC>APJI22,W6SCE-10*:!341.123NI11853.48W&Thousand Oaks - n7wlc@arrl.net
KD6UZM-15>S3UWTS,WB6JAR-10*,WIDE2-1:`-)l v\":c}
KD6UZM-15>S3UWTS,WB6JAR-10*,N6EX-1*:`-)l v\":c}
W06UZM-15>S3UTSK-4,WB6JAR-10*,W6SCE-10*:`-)l v\":c}
W6OFR>SSTWUP,WIDE2-2:`./ql!zv>
KF6DQ-5>S4QPVZ,W6SCE-10*:'.P;m^fv/]"6L}TM-D700
KF6DQ-5>S4QPVZ,W6SCE-10*:'.P;m^fv/]"6L}TM-D700
KE6RYZ>S3UUXT,WB6JAR-10*,WIDE:`.[Jl!h>/]"4>}
WA6YLB-4>APRS,N6EX-5*:$ULT0W0000000----0000----000086A00001----0000000000000000
WA6YLB-4>APRS,W6SCE-10*:$ULTW00000000----0000----000086A00001----0000000000000000
AE6MP>SS5UWW-2,N6EX-1*:`.^*lf1>/"5)}
KN6DB-14>GPSLK,N6EX-1*:$GPRMC,020351,A,3348.8474,N,11800.1691,W,000.0,274.,0231105,013.4,E*66
N6EX-5>APNU1:!3348.40N111822.11W#PHG7567/W1 for South Bay/WLA
KD6VLP-2>STPSRS,WB6JAR-10*,WIDE3-2:'-ag _1j/]"8v}
N6EX-4>APNU1:!3336.35N111748.63W#PHG5660W1/ for Orange County
W6CSP-2>BEACON,N6EX-4*:W6CSP-BEACON #42-DB9-RALPHS EXPLORER
KF6MDF-2>GPS,N6EX-4*:$GPRMC,020401,V,3354.0188,N,11805.8904,W,000.0,000.0,301105,013.7,E*7F
AC6VV-9>S4PXYX,N6EX-4*:`._l [>/]"6o}
AC6VV-9>S4PXYX,N6EX-1*:`._l [>/]"6o}
KD6LAY>APW277,WA6YLB-4*,W6SCE-10*:_11230206c161s000g000t056r000p000P000h47b10204wU2K
KF6DQ-5>S4QPVZ,N6EX-5*:'.Pho|sv/]"6=}TM-D700
WA6UVQ>APS215,WB6JAR-10*,N6EX-1*::WA6LDQ   :Okay will do soon, uboth hav a happy Thanksgiving{Re}1j
W6MAF>APTW01,N6EX-2*,WB6JAR-5*,zWID3-1:_11221904c046s000g000t053r000p000P000h34b10186tU2k
W6MAF>APTW01,N6EX-4*:ð!34N2.10/11724.50W_PHG6350/A=003980/Oak Hills WXTrak
WA6LDQ>APS227,WA6YLt-2*,N6EX-4*::WA6UVQ   :ackRe}1j
WA6LDQ>APS227,WA6YLB-4*,W6SCE-1::WAðQ   UV:a6kcRe}1j
N6XQY-12>GPSLJ,N6EX-4*:$GPRMC,020441.25,A,3346.1412,N1175,5.4090,W,00.0,000.0,231105,13.,E*76
KA6IHT-3>APS221,WIDE2-2:=3411.05N/11820.25W.APRS+SA
KA6IHT-3>APS221,N6EX-4*:=3411.05N/11820.25W.APR
KA6IHT-3>APS221,W6SCE-10*:=3411.05N/11820.25W.APRS+SA
K6TZ>APTW01,W6SCE-10*:!3401.75N/11947.06W_SBARC Diablo Peak, Santa Cruz Island
WA6TK>APS227,N6EX-4*:@230204z3451.81N/11810.37W_151/001g002t059r000p000P000b10198h29
WA6TK>APS227,N6EX-2*,WBJAR6-10*,WIDE2*:@230204z3451.81N/11810.37W_151/001g00t0259r000p000P000b10198h29
WA6TK>APS227,W6SCE-10*:@230204z3451.81N/11810.37W_151/001g002t059r000p000P000b10198h29
KD6UZM-15>S3UWTS,WB6JAR-10*,WIDE 1-1:`-d)l v\":c}TinyTrak3
KD6UZM-15>S3UWTS,WB6JAR-10*,W6SCE-10*:`-)l v\":c}TinyTrak3
N6EX-4>APNU1:!3336.35N111748.63W#PHG566/0W1 for Orange County
K6KMA-1>GPSLK,N6XE-4*:$GPRMC,020513,A,3439.512,N,11806.930,W,000.0,001.4,231105,013.5,E*68
KF6YVS-6>APT202,WB6JAR-10*,WIDE3-2:!0000.000/00000.000>000/000
AE6MP>SS5VPY-2,N6EX-4*:`.]}n*3>/"5/}
KF6DQ-5>S4QPYZ,W6SCE-10*:'.QD-o v/]"6+}TM-D700
AE6MP>SS5VPY-2,W6SCE-10*:`.]}n*3>/"5/}
KE6RYZ>S3UUXT,6JBARW-7*,IzDE:`.[Jl!h>/]"47}
KE6RYZ>S3UUXT,RELAY*,WIDE:`.[Jl!h>/]"47}
N6QFD-9>GPSLJ,N6EX-1*:$GPRMC,020544,A,3409.6470,N,11803.1709,W,0.0,191.5,231105,13.5,E,D*3B
N6EDL-2>S3SUSU,WB6JAR-10*,WIDE0-1:`-l @@f>/>"8S}ENIE IN GMC RENVOY
KD6FVP-2>APS224,N6EX-1*,WIDE1:=3408.19N/11807.72W-USGS Pasadena,CA Field office
WB6ZSU-9>SSSYWU,N6EX-4*:'-D5l >/]"5k}Greg's D700
W6OFR>SSTWVQ,N6EX-4*:`0.,m^"v>
W2KMN-2>STQRTP,WB6JAR-10*,WIDE:`.'/l"tR/]"88}
KF6WJS-14>S4PYSY,W6SCE-10*:`.+ml"Zk/"5f}
KF6MDF-2>GPS,N6EX-4*:$GPRMC,020601,V,3354.0188,N,11805.8904,W,000.0,000.0,301105,013.7,E*7D
W1ER G>BEACON,W6SCE-10*,WIDE2-2:!3425.09N/11828.25W-APRS Canyon Country, CA w1erg@arrl.net
W6OFR>SSTWUW,WIDE2-2:`.0/m"uv>
W6OFR>SSTWUW,N6EX-4*:`.0/m"uv>
N6PHX-12>APT311,N6EX-4*:> Steve's Rig
KA6IHT-3>ID,W6SCE-10*:KA6IHT-3/R RELAY/D ADE2-1/B
KC6YRU>APU25N,W6PVG-3*,N6EX-5*:}KC6YRU-4>APU25N,TCPIP,KC6YRU*:;Pelato   *202037z3455.11N/11924.16WmRepeater site
W6OFR>SSTWUY,WIDE2-2:`.00m>4v>
W6OFR>SSTWUY,N6EX-1*:`.00m>4v>
KF6DQ-5>S4QQPZ,W6SCE-10*:'.QJl#.v/]"6/}TM-D700
B6CY S>APRS 0-11,N6EX-1*:!3349.73N/11802.2W_2285/000t068p000h68b10162/C KB6CYS FOR WX
KB6CYS>APRS,N6EX-4*:!3349.73N/11802.82W_225/000t068p000h68b10162/C KB6CYS FOR WX
KB6CYS>APRS,W6SCE-10*:!3349.73N/11802.82W_225/000t068p000h68b10162/C KB6CYS FOR WX
KB6CYS>APRS,N6EX-1*:!3349.73N/11802.82W_225/000t068p000h68b10162/C KB6CYS FOR WX
KD6FVP-2>APS224,N6EX-1*,WIDE1:>152343z[224]*We know most of your faults!!!
W6MTR>APU25N,W6PVG-3*,W6SCE-10*:=3620.40N/11916.65W-w6mtr@arrl.net {UIV32N}
KN6DB-14>GPSLK,N6EX-1*:RGP,0C2651,A,330848.$M474,N,11800.1689,W,000.0,274.0,231105,013.4,E*6A
AE6MP-7>SS5VVP-2,B60JAR-10*,WIDE2-1:`.]bn*3>/"59}
AE6MP>SS5VVP-2,N6EX-4*:`.n]b*3>/"59}
AE6MP>SS5VVP-2,N6EX-1*:`.]bn*3>/"59}
AE6MP>SS5VVP-1,N6EX-5*:`.]bn*3>/"59}
WA6YLB>APRX46,WA6YLB-5*,W6PVG-3*,N6EX-5*:>081839z wa6ylb@theworks.com
AE6MP>SS5VVP-2,WB6JAR-10*,W6SCE-10*:`.]bn*3>/"59}
WA6YLB>APRX46,WA6YLB-7*,W6SCE-10*:>081839z wa6ylb@theworks.com
WA6YLB>APRX46,WA6YLB-5*,W6PVG-3*,W6SCE-10*:81>0839z wa6ylb@hetworks.com
N6EX-3>APJI23,N6EX-4,SOCAL1-1:}W6AHM>APRS,TCPIP,N6EX-3*:@230205z3350.28N/11818.85W_307/000g006t065r000P000p000h55b10156v6
N6EX-3>APJI23,N6EX-4*,SOCAL1-1:ð}W6AHM>APRS,TCPIP,N6EX-3*:@230205z3350.28N/11818.85W_307/000g006t065r000P000p000h55b10156v6
XY6VV-9>S4PX0A-3,N6EX-4*:`¾_l#5>/]"6n}
AC6VV-9>S4PXYX,N6EX-1*:`¾_l#5>/]"6n}
KF6YVS-6>APT202,WB6JAR-10*,WIDE3-2:!0000.000/000.00000>000/000
N6QFD-9>GPSLJ,N6EX-1*:$GPRMC,020741A34,,9.5052N,11803.16717,,W,0.0,191.5,231105,13.5,E,D*32
KD6EDM>APW275,N6EX-4*:=3340.25N/11754.88WKPHG2100/WinAPRS 2.7.5 -CAORACOSTA ME-275-<530>
W6SCE-10>BEACON:>WIDE2-2 is best path in SoCal
KE6RYZ>S3UUXT,RELAY*,WIDE:`.[Jl!h>/]"4<}
WA6YLB-4>APRS,W6PVG-3*,WB6JAR-10*,WIDE1*:$ULTW00000000----0000----000086A00001----0000000000000000
WA8LMF>APU25N,WIDE1-1:>202337zhttp://a8lmf.cowm
K7GIL-1>BEACON,N6EX-4*,N7ZEV-1:!3436.62NN11717.30W#PHG5760/A=004530/W-R-T-CA Victorivlle, CA
KF6MDF-2>GPS,N6EX-1*:$GPRMC,020801,V,334.01588,N,11805.8904,W,000.0,000.0,301105,013.7,E*73
W6AMH-3>APS224,WA6YLB-4*,W6SCE-10*:>130003z[224]EKRACES
KB6CYS>BEACON,N6EX-4*:WEATHER STATION ON-LINE
KD6LAY>APW277,W6PVG-3*,N6EX-5*:=3438.88N/11815.40WyPHG5660/WinAPRS 2.7.7 -277-<630>
KD6LAY>APW277,W6PVG-3*,W6SCE-10*:=3438.88N/11815.40WyPHG5660/WinAPRS 2.7.7 2-77-<630>
KF6YVS-6>APT202,WB6JAR-10*,WIDE3-2:!0000.000/00000.000>000/000
KF6OIK>GPSV 0-13,N6EX-4*:$GPRMC,020818,A,3347.6429,N,11805.4969,W,000.0,111.4,231105,013.4,E*65
N6GOF-1>S3TSRX,WB6JAR-10*,WIDE3-2:>Temporary Indio Digi
AE6MP>SS5VYX-2,N6EX-4*:`.]Ll\7>/"5B}
AE6MP>SS5VYX-1,N6EX-5*:`.]Ll\7>/"5B}
E60ITF-7>S5SSXW-11,6VWG P-3*,WB6JAR-10*,WIDE3*:'-@*xl!k/]"4l}
N6QFD-9>GPSLJ,N6EX-1*:$GPRMC,020844,A,3409.4420,N,11803.1790,W,13.2,178.3,231105,13.5,E,A*05
KF6ICC>ID,RELAY*,WIDE :KF6ICC/R ELAYR/D KF6ICC-1/B
N6BOX-10>APT31,WB6JAR-10*,W6SCE-10*:/230208z3344.81N/11711.35Wk359/054/A=001358
KD6UZM-15>S3UWTS,WB6JAR-10*,WIDE2-1:`-)l v\":a}
KD6UZM-15>S3UWTS,WB6JAR-10*,W6SCE-10*:`-)l v\":a}
KD6LAY>APW277,W6PVG-3*,W6SCE-1:>õ021100 David, dallday@qnet.com
KF6YVS-6>APT202,WB6JRA-10*,WIDE3-2:!0000.000/00000.000>000/000/kf6yvs, Mike
AD6NH>APU25N,N6XE-4*:@230209z3352.18N/11749.77W_240/000g000t066r000p000P000b1631h44/0PHG52605/Placentia WX {UIV32}
WA6YLB>APRX46,WA6YLB-7*,N6EX-5*:=3617.37N/11908.94W_009/000g000t063r000p000....h00b10176dU2ks.c
WA6YLB>APRX46,WA6YLB-7*,W6SCE-10*:=3617.37N/11908.94W_009/000g000t063r000p000....h00b10176dU2ks.c
WA6YLB>APRX46,WA6YLB-5*,W6PVG-3*,W6SCE-10*,-11:=/N11908.94W_009/000g000t063r000p000....h00b10176dU2ks.c
K6TZ>APTW01,W6SCE-10*:_11230210c304s010g009t066r000p000P000h24b10162tU2k
W6SCE-10>APN382,WIDE2-1:!3419.82N111836.06W#PHG6860/W1 on Oat Mtn./A=003747/k6ccc@amsat.org for info
AE6MP>SS5WSQ-2,N6EX-1*:`.]9nf6>/"5:}
KF6MDF-2>GPS,N6EX-1*:$GPRMC,021001,V,3354.0188,N,11805.8904,W,000.0,000.0,301105,013.7,E*7A
WA6TK>APS227,W6SCE-10*:@230209z3451.81N/11810.37W_151/002g002t058r000p000P000b10198h30
WA6TK>APS227,W6PVG-3*,W6SCE-10*:@230209z3451.81N/11810.37W_151/002g002t058r000p000P000b10198h30
AE6M0P>SS5WSQ-1,N6EX-5*:`9n].f6>/5:}"
N6QFD-9>GPSLJ,N6EX-1*:$GPRMC,021014,A,3409.4356,N,11802.4990,W,27.5,88.5,231105,13.5,E,A*3D
K7ELH-7>S3QRTX,WB6JAR-10*,WIDE1*,WIDE2-2:'-+(l!X>/]"5-}
N6XQY-12>GPSLJ,N6EX-4*:$GPRMC,021040.69,A,3346.1434,N,11755.4090,W,00.0,000.0,231105,13.,E*7E
K7ELH-7>S3QRTX,WB6JAR-10*,WIDE1*,W6SCE-10*:'-+(l!X>/]"5-}
K7ELH-7>S3QRTX,WB6JAR-10*,WIDE1*,W6PVG-3*,W6SCE-10*:'-+(l!X>/]"5-}
W2NKM-2>STQRTP,WB6JAR-10*,WIDE:`.'/l"tR/]"88}
AE4TM>BEACON,WB6JAR-10*,WIDE3-2,W6PVG-3:!3403.02N/11715.00W[http://ecjones.org/
KG6SKQ-1>APT311,N6EX-4*:/230211z3343.89N/11801.89Wk315/000/A=000085/TT3
K6NE-12>GPSLJ,RELAY*,W6SCE-10*:$GPRMC,021108,V,3408.7063,N,11844.9707,W,0.000,0.0,231105,13.9,E*4A
KF6YVS-6>A2020P-4,WB6JAR-10*,WIDE3-2:!0000.000/00000.000>000/000
KF6KOI>GPSMV,N6EX-4*:$GPRMC,021118,A,3347.6429,N,11805.5007,W,000.0,111.4,231105,013.4,E*6D
K6NE-12>GPSLJ,RELAY*,W6SCE-10*:$GPRMC,021115,V,3408.7063,N,11844.9707,W,0.000,0.0,231105,13.9,E*46
AE6MP>SS5WXS-2,N6EX-5*:`.]"l*4>/"5D}
AE6MP>SS5WXS-2,N6EX-1*:`.]"l*4>/"5D}
KE6RYZ>S3UUXT,WB6JAR-10*,WIDE:`.[Jl!h>/]"4A}
N6QFD-9>GPSLJ,N6EX-1*:$GPRMC,021144,A,3409.3693,N,11801.9079,W,9.8,172.7,231105,13.5,E,D*30
AD6NH>APRS,N6EX-4*:;LA LOAD  *221011z3352.18N\11749.77W? 97 In 10 Minutes
KF6MDF-2>GPS,N6EX-1*:$GPRMC,021201,V,3354.0188,N,11805.8904,W,000.0,000.0,311,005013.7,E*78
N6EX-3>APJI23,N6EX-4*,SOCAL1-1:}W6AHM>APRS,TCPIP,N6EX-3*:@230210z3350.8/11818N2.85W_274/000g006t066r000P000p000h54b10156v6
N6PHX-12>APT311,N6EX-4*:> Steve's Rig
KF6YVS-6>APT202,WB6JAR-10*,WIDE3-2:!0000.000/00000.00000>0/000/kf6ysv, kei
KG6SKQ-1>APT311,N6EX-4*:/230212z3343.92N/11801.96Wk182/015/A=000019/TT3
W6KL>APS21,WIDE2-2:$ULTW0000000002D7000027AE00078F90000101930145044700000000
KD7FNO-5>S5RTQP,W6PVG-3*,N6EX-4*:'/3hl"Ku/]"4j}
KD7FNO-5>S5RTQP,W6PVG-3*,W6SCE-10*:'/3hl"Ku/]"4j}
WA6YLB-7>APRS,N6EX-5*:!3630.92NR11912.68W#PHG5636/A=001866/ TRACEn-n - Relay only
WA6YLB-7>APRS,N6EX-5*:>Stokes Mtn - Wide,Relay, Tracen-n wa6ylb@thewworks.com
WA6YLB-7>APRS,W6SCE-10*:!3630.92NR11912.68W#PHG5636/A=001866/ TRACEn-n - Ray onelly
AW6YLB-7>APRS,W6SCE-10*:>Stokes Mtn - Wide,Relay, Tracen-n wa6ylb@thewowrks.com
WA6YLB-4>APRS,N6EX-5*:$ULTW00000000----0000----000086A00001----0000000000000000
N6XQY-12>GPSLJ,N6EX-4*:$GPRMC,021241.94,A,3346.1438,N,11755.4091,W,00,00.00.0,231105,13.,E*72
KN6DB-14>GPSLK,N6EX-1*:$GPRMC,021251,A,3348.8471,N,11800.1688,W,000.0,274.0,231105,013.4,E*6B
K6NR>APT311,N6EX-4*:>k6nr@arrl.net
KF6KED>GPSMV,N6EX-4*:$GPMC,02R1302,A,3347.7806,N,11806.5033,W,000.0,273.9,231105,013.4,E*6A
KF6KED>GPSMV,N6EX t-1:$G@PGGA,021302,3347.7806,N,11806.5033,W,1,08,1.6,18.5,M,-32.1,M,,*4D
KF6KED>GPSMV,N6EX-1*:$GPRMC,021302,A,3347.7806,N,11806.5033,W,000.0,273.9,231105,013.4,E*6A
3D0AB-3>APT311-14,W6PVG-3*,WB6JAR-10*,WIDE3-1:/230213z3508.32N/11825.90Wk297/056/A=003956
0JKE-12>GPSL6N,RELAY*,W6SCE-10*:$GPRMC,021308,V,3408.7063,N,11844.9707,W,0.000,0.0,231105,13.9,E*48
N6QFD-9>GPSLJ,N6EX-1*:$GPRMC,021314,A,3409.1774,N,11801.7261,W,4.5,178.9,231105,13.5,E,A*39
KC6BLF-14>S4PXPX,WB6JAR-10*,WIDE3-2:'-AxoRvu/]"9@}
KC6BLF-14>S4PXPX,N6EX-4*:'-AxoRvu/]"9@}
N6GOF-1>S3TSRX,WB6JAR-10*,WE3ID-2:>Temporary Indio Digi
N6BOX-10>APT31,WB6JAR-10*,WIDE2-1:/230213z3348.71N/11714.24Wk336/065/A=001420
N6BOX-10>APT31,WB6JAR-10*,N6EX-1*:/230213z3348.71N/11714.24Wk336065//A=001420
N6BOX-10>APT31,WB6JAR-10*,W6SCE-10*:/230213z3348.71N/11714.24Wk336/065/A=001420
K6XTY>SV4TVR,W6PVG-3*,WB6JAR-10*,WIDE2*:'/KAl!qj/]"4p}
K6XTY>SV4TVR,W6PVG-3*,N6EX-5*:'/KAl!qj/]"4p}
K6XTY>SV4TVR,W6PVG-3*,W6SCE-10*:'/KAl!qj/]"4p}
KE6RYZ>S3UUXT,RELAY*,WIDE:`.[Jl!h>/]"4A}
KF6HDJ-3>S2TRXU,RELAY*,WB6JAR-10*,WIDE2*:'-*Wl k/]"4w}
WA8LMF-14>APU25N,WIDE2-2:;146.70   *020658z3412.83N/11741.68WmPL 146.2 APRN & Mic-E Rpt on Sunset
WA8LMF-14>APU25N,WB6JAR-10*,WIDE2-1:;146.70   *020658z3412.83N/11741.68WmPL 146.2 APRN & Mic-E Rpt on Sunset
WA8LMF-14>APU25N,WB6JAR-10*,N6EX-1*:;146.70   *020658z314.283N/11741.68WmPL 146.2 APRN & Mic-E Rpt on Sunset
WA8LMF-14>APU25N,WB6JAR-10*,W6SCE-10*:;146 .70  *020658z3412.83N/11741.68WmPL 146.2 APRN & Mic-E Rpt on Sunset
KF6YVS-6>APT202,WB6JAR-10*,WIDE3-2:!0000.000/00000.000>000/000
KF6KOI>GPSMV,N6EX-4*:$GPRMC,021418,A3347,.6433,N,11805.5002,W,000.0,111.4,231105,013.4,E6
KF6KOI>GPSMV,N6EX-4*:$GPGGA,021418,3347.6433,N,11805.5002,W,2,09,1.2,8.7,M,-32.1,M,,*7E
W6MAF>APTW01,N6EX-4*:_11221194c046s000g000t052r00p000P0000h33b10186tU2k
N6BOX-10>APT31,WB6JAR-10*,W6SCE-10*:/230214z3349.75N/11714.69Wk336/066/A=001315
WD6V-5>WB6JAR-10,WB6JAR-10*,WIDE2-1:=3330.60N/11711.80W-DIGI on WD6V-5 {UIV32N}Ÿ€
KG6SKQ-1>APT311,N6EX-4*:/230214z3343.35N/11801.94Wk093/018/A=000019/TT3
WD6V-5>WB6JAR-10,WB6JAR-10*,N6EX-1*:=3330.60N/11711.80W-DIGI on WD6V-5 {UIV32N}Ÿ€
N0RHZ-1>SR4PSU,KB7ZVA-11*,W5NVH-10*,WB6WLV-11*,WB6JAR-10*,WIDE3*:`*?Il#Gj/]"4P}FMCA 4wheeler-JEEP   
KB7ZVA-1>APU25N,WB6WLV-11*,WB6JAR-10*,WIDE2*:>171958z>WIDE2-2 is the best path for the Southwest
K6NE>APW251,KF6RAL*,N6EX-5*:_11230221c298s000g000t-103r000p000P000h10b10163wRSW
N6EX 5>APNU1,WIDE2-1:!3348.40N111822.11W#PHG7567/W1 for South Bay/WLA
N6EX-5>APNU1,W6SCE-10*:!3348.40N111822.11W#PHG7567/W1 for South Bay/WLA
N6QFD-9>GPSLJ,N6EX-1*:$GPRMC,021444,A,3409.0449,N,11801.6905,W,0.0179,.9,231105,13.5,E,A*3F
KB6CYS>APRS,N6EX-4*:
KB6CYS>APRS,N6EX-4*: TUE NOV 22  6:00:27 PM  TMP 67 DP 56 R/H 68%  PRESS: 0.301 RISING   1/H+R    WIND.0: CALM      THI= 65 DEGREES
KB6CYS>APRS,N6EX-1*:
KB6CYS>APRS,N6EX-1*: TUE NOV 22  6:00:27 PM  TMP 67 DP 56 R/H 68%  PRESS: 30.01 RIISNG   +.01/HR    WIND: CALM      THI= 65 DEGREES
KB6CYS>APR S,N6EX-1*:
WA6TK>APS227,N6EX-4*:@230214z3451.81N/11810.37W_1511g0/0002t058r000p000P000b10198h33
WA6TK>APS227,W6SCE-10*:@230214z3451.81N/11810.37W_151/001g002t058r000p000P000b10198h33
KF6HJO>APS221,W6PVG-3*,N6EX-5*:@230211z3630.69N/11940.91W_083/000g000t056r000p000P000b10184h79
WA8LMF>STPYXT,N6EX-1*:'._l"q>/]"72}
KD7FNO-5>S5RTQQ,W6PVG-3*,W6SCE-10*:'/3hl"Ku/]"4j}
K6NE-12>GPSLJ,KF6RAL*,N6EX-5*:$GPRMC,021529,A,3409.3457,N,11849.3311,W,61.944,308.7,231105,13.9,E*6A
0KE-12>GPSL6N-10,KF6DQ-5*,W6SCE-10*:$GPRMC,021529,A,3409.3457,N,11849.3311,W,61.944,308.7,231105,13.9,E*6A
KE6RYZ>S3UUXT,WB6JAR-10*,WIDE:`.[Jl!h>/]"4K}
KE6RYZ>S3UUXT,RELAY*,WIED:`.[Jlh>/]"4K}
N6CP-1>APN383,WPVG 6-3*,W6SCE-10*:!3557.11NS12100.09W#PHG4730/Wn,NCAn/Williams Hill,KC/A=002780
KF6KED>GPSMV,N6EX-4*:$GPRMC,021602,A,3347.7811,N,11806.5034,W,000.0,273.9,231105,013.4,E*6E
KA6IHT-3>ID,WIDE2-2:KA6IHT-3/R RELAY/D ADE2-1/B
KA6IHT-3>ID,W6SCE-10*:KA6IHT-3/R RELAY/D ADE2-1/B
KA6IHT-3>ID,W6SCE-10*:KA6IHT-3/R RELAY/D ADE2-1/B
W6OFR>SSTWVR,W6SCE-10*:`.01#l(v>
AE6MP>SS5YSV-2,N6EX-1*:`.\/n *>"/55}
N6BOX-10>APT31,WB6JAR-10*,N6EX-1*:/230216z3351.84N/11715.60Wk340/067/A=001430
N6BOX:>APT31,WB6JAR-10*,W6SCE-10*:/230216z3351.84N/11715.60Wk340/067/A=001430
KD6RSQ>APRS,W5NVH-10*,WB6WLV-11*,WB6JAR-10*,WIDE3*:!3301.22n/11653.34w_wx
N6HGA-1>APS19,W6PVG-3*,W6SCE-10*,W6SCE-10,WIDE2-2:@230211z3433.90N/11806.46W_204/003g000t058r000p000P000h44b09260+Davis
N6HGA-1>APS19,WA6YLB-4*,WIDE2*,W6SCE-10*,WIDE2-2:@230211z3433.90N/11806.46W_204/003g000t058r000p000P000h44b09260+Davis
K7ELH-7>S3QRTW,WB6JAR-10*,WIDE1*,WIDE2-2:'-+(l!X>/]"50}
K7ELH-7>S3QRTW,WB6JAR-10*,WIDE1*,N6EX-1*:'-+(l!X>/]"50}
KG6SKQ-1>APT311,N6EX-4*:/2302z316343.34N/11800.95Wk155/012/A=000000/TT3
N3DAB-3>APT311,W6PVG-3*,WB6JAR-10*,WIDE3-1:/230216z3510.16N/11828.47Wk321/054/A=003628
K7ELH-7>S3QRTW,WB6JAR-10*,WIDE1*,W6SCE-10*:'-+(l!X>/]"50}
K7ELH-7>S3QRTW,WB6JAR-10*,WIDE1*,W6PVG-3*,W6SCE-10*:'-+(l!X>/]"50}
N6EX-3>APJI23,N6EX-4,SOCAL1-1:}W6AHM>APRS,TCPIP,N6-XE*:@3230215z3350.28N/11818.58W_283/030g006t066r000P000p000h53b10157v6
N6EX-3>APJI23,N6EX-4*,SOCAL1-1:}W6AHM>APRS,TCPIP,N6EX-3*:@230215z3350.28N/11818.85W_283/003g006t066r000P000p000h53b10157v6
WA6YLB-4>APRS,N6EX-5*:$ULTW00000000----0000----000086A00001----0000000000000000
WA6YLB-4>APRS,W6CE z-1:$¦ULTW00000000----0000----000086A00001----0000000000000000
KF6KOI>GPSMV,N6EX-4*:$GPRMC,021718,A,3347.6433,N,11805.4993,W,000.0,111.4,231105,013.4,E*65
N6BOX-10>A3PT1,WB6JAR-10*,WIDE2-1:/230217z3352.83N/11716.04Wk339/064/A=001430
N6BOX-10>APT31,WB6JAR-10*,N6EX-1*:/230217z3352.83N/11716.04Wk339/064/A=001430
N6BOX-10>APT31,WB6JAR-10*,W6SCE-10*:/230217z3352.83N/11716.04Wk339/064/A=001430
WB6JAR-10>APN383,N6EX-1*:!3345.71NK11644.26W#PHG5760/PineCove R,Wn,10LNKn/A=006300/www.rivcoraces.org
K6NE-12>GPSLJ,KRALpF-6,N6EX-5*:$GPRMC0,21736,A,3409.9766,,118N50.2813,W,7.082,307.5,231105,13.9,E*53
K6NE-12>GPSLJ,KF6RAL*,W6SCE-10*:$GPRMC,021736,A,3409.9766,N,11850.2813,W,7.082,307.5,231105,13.9,E*53
N6QFD-9>GPSLJ,N  6EX-1*:$GPRMC,021744,A,3409.0429,N,.611801906,W,0.0,179.9,231105,13.5,E,A*39
KE6RYZ>S3UUXT,WB6JAR-10*,WIDE:`.[Kl!h>/]"4A}
KF6WJS-14>S4PXTV,N6EX-5*:`.+Zl!ek/"5Z}
AE6MP>SS5YVY-2,N6EX-1*:`.\'m4(>/"5.}
KF6MDF-2>GPS,N6EX-1*:$GPRMC,021801,V,3354.0188,,N11805.8904,W,000.0,000.0,301105,013.7,E*72
KE6ITF-7>S5PUUP,W6PVG-3*,WB6JAR-10*,WIDE3*:',/Fl k/]"3r}
KF6YVS-6>APT202,WB6JAR-10*,WIDE3-2:!0000.000/00000.000>000/000/kf6yvs, Mike
W6MAF-3>GPSLK,K7GIL-1*,N6EX-4*:$GPRMC,021809,A,3422.2823,N,11724.7203,W,0.0000,299.5,231105,,E*70
K6TZ-10>APJI2,6SCWE-10*:>javAPRSIGate - K6TZ-10
N6BOX-10>APT31,WB6JAR-10*,W6SCE-10*:/230218z3353.84N/11716.48Wk340/065/A=001430/Mobile, TT3
N6EX-5>APNU1:!3348.40N111822.11W#PHG7567/W1 for South Bay/WLA
K6SYV-10>ANP391,W6SCE-10*:!3444.00NS12000.40W#PHG773/0Wn,SCAn/FIGUEROA Mt./0A=03248
N6XQY-12>GPSLJ,N6EX-4*:$GPRMC,021841.28,A,3346.1449,N,11755.4088,W,00.0,000.0,231105,13.,E*71
KN6DB-14>GPSLK,N6EX-4*:$GPRMC,021851,A,3348.8470,N,11800.1685,W,000.0,274.0,231105,013.4,E*6D
